[
  {
    "id": "abilene-public",
    "name": "Abilene Public Library",
    "city": "Abilene",
    "lat": 32.4487,
    "lng": -99.7331,
    "booksHeld": 1,
    "totalCopies": 1,
    "vendor": "sirsi_dynix",
    "region": "Taylor County"
  },
  {
    "id": "alba-public",
    "name": "Alba Public Library and Museum",
    "city": "Alba",
    "lat": 32.7932,
    "lng": -95.6313,
    "booksHeld": 2,
    "totalCopies": 2,
    "vendor": "apollo",
    "region": "Wood County"
  },
  {
    "id": "alexander-memorial",
    "name": "Alexander Memorial Library",
    "city": "Cotulla",
    "lat": 28.4372,
    "lng": -99.235,
    "booksHeld": 0,
    "totalCopies": 0,
    "vendor": "apollo",
    "region": "La Salle County"
  },
  {
    "id": "allen-public",
    "name": "Allen Public Library",
    "city": "Allen",
    "lat": 33.1032,
    "lng": -96.6706,
    "booksHeld": 4,
    "totalCopies": 4,
    "vendor": "apollo",
    "region": "Collin County"
  },
  {
    "id": "alpine-public",
    "name": "Alpine Public Library",
    "city": "Alpine",
    "lat": 30.3585,
    "lng": -103.661,
    "booksHeld": 20,
    "totalCopies": 20,
    "vendor": "apollo",
    "region": "Brewster County"
  },
  {
    "id": "amarillo-public",
    "name": "Amarillo Public Library",
    "city": "Amarillo",
    "lat": 35.222,
    "lng": -101.8313,
    "booksHeld": 4,
    "totalCopies": 5,
    "vendor": "sirsi_dynix",
    "region": "Potter County"
  },
  {
    "id": "andrews-county",
    "name": "Andrews County Library",
    "city": "Andrews",
    "lat": 32.3187,
    "lng": -102.546,
    "booksHeld": 10,
    "totalCopies": 11,
    "vendor": "apollo",
    "region": "Andrews County"
  },
  {
    "id": "athens-public",
    "name": "Clyde Wells Memorial Library",
    "city": "Athens",
    "lat": 32.2049,
    "lng": -95.8552,
    "booksHeld": 0,
    "totalCopies": 0,
    "vendor": "koha",
    "region": "Henderson County"
  },
  {
    "id": "aubrey-public",
    "name": "Aubrey Area Library",
    "city": "Aubrey",
    "lat": 33.304,
    "lng": -96.9862,
    "booksHeld": 2,
    "totalCopies": 2,
    "vendor": "apollo",
    "region": "Denton County"
  },
  {
    "id": "austin-county",
    "name": "Austin County Library System",
    "city": "Wallis",
    "lat": 29.6322,
    "lng": -96.065,
    "booksHeld": 9,
    "totalCopies": 9,
    "vendor": "apollo",
    "region": "Austin County"
  },
  {
    "id": "austin-public",
    "name": "Austin Public Library",
    "city": "Austin",
    "lat": 30.2672,
    "lng": -97.7431,
    "booksHeld": 0,
    "totalCopies": 0,
    "vendor": "bibliocommons",
    "region": "Travis County"
  },
  {
    "id": "ballinger-public",
    "name": "Carnegie Library of Ballinger",
    "city": "Ballinger",
    "lat": 31.7382,
    "lng": -99.9473,
    "booksHeld": 0,
    "totalCopies": 0,
    "vendor": "apollo",
    "region": "Runnels County"
  },
  {
    "id": "bandera-public",
    "name": "Bandera Kronkosky Public Library",
    "city": "Bandera",
    "lat": 29.7266,
    "lng": -99.0736,
    "booksHeld": 3,
    "totalCopies": 3,
    "vendor": "apollo",
    "region": "Bandera County"
  },
  {
    "id": "bastrop-public",
    "name": "Bastrop Public Library",
    "city": "Bastrop",
    "lat": 30.1105,
    "lng": -97.3153,
    "booksHeld": 26,
    "totalCopies": 27,
    "vendor": "apollo",
    "region": "Bastrop County"
  },
  {
    "id": "bay-city-public",
    "name": "Bay City Public Library",
    "city": "Bay City",
    "lat": 28.9828,
    "lng": -95.9694,
    "booksHeld": 0,
    "totalCopies": 0,
    "vendor": "atriuum",
    "region": "Matagorda County"
  },
  {
    "id": "beaumont-public",
    "name": "Beaumont Public Library",
    "city": "Beaumont",
    "lat": 30.0802,
    "lng": -94.1266,
    "booksHeld": 68,
    "totalCopies": 94,
    "vendor": "sirsi_dynix",
    "region": "Jefferson County"
  },
  {
    "id": "bee-county",
    "name": "Joe Barnhart Bee County Library",
    "city": "Beeville",
    "lat": 28.4008,
    "lng": -97.7486,
    "booksHeld": 22,
    "totalCopies": 22,
    "vendor": "apollo",
    "region": "Bee County"
  },
  {
    "id": "bellaire-public",
    "name": "Bellaire City Library",
    "city": "Bellaire",
    "lat": 29.7058,
    "lng": -95.4588,
    "booksHeld": 0,
    "totalCopies": 0,
    "vendor": "sirsi_dynix",
    "region": "Harris County"
  },
  {
    "id": "bellville-public",
    "name": "Bellville Public Library",
    "city": "Bellville",
    "lat": 29.9502,
    "lng": -96.2572,
    "booksHeld": 1,
    "totalCopies": 1,
    "vendor": "apollo",
    "region": "Austin County"
  },
  {
    "id": "belton-public",
    "name": "Lena Armstrong Public Library",
    "city": "Belton",
    "lat": 31.0562,
    "lng": -97.4642,
    "booksHeld": 6,
    "totalCopies": 6,
    "vendor": "apollo",
    "region": "Bell County"
  },
  {
    "id": "benbrook-public",
    "name": "Benbrook Public Library",
    "city": "Benbrook",
    "lat": 32.6732,
    "lng": -97.4603,
    "booksHeld": 0,
    "totalCopies": 0,
    "vendor": "aspen_discovery",
    "region": "Tarrant County"
  },
  {
    "id": "blanco-public",
    "name": "Blanco Library",
    "city": "Blanco",
    "lat": 30.0977,
    "lng": -98.4214,
    "booksHeld": 21,
    "totalCopies": 21,
    "vendor": "apollo",
    "region": "Blanco County"
  },
  {
    "id": "boerne-public",
    "name": "Patrick Heath Public Library",
    "city": "Boerne",
    "lat": 29.7947,
    "lng": -98.732,
    "booksHeld": 12,
    "totalCopies": 12,
    "vendor": "apollo",
    "region": "Kendall County"
  },
  {
    "id": "bonham-public",
    "name": "Bonham Public Library",
    "city": "Bonham",
    "lat": 33.5773,
    "lng": -96.1783,
    "booksHeld": 1,
    "totalCopies": 1,
    "vendor": "apollo",
    "region": "Fannin County"
  },
  {
    "id": "brazoria-county",
    "name": "Brazoria County Library System",
    "city": "Alvin",
    "lat": 29.4238,
    "lng": -95.2441,
    "booksHeld": 0,
    "totalCopies": 0,
    "vendor": "spydus",
    "region": "Brazoria County"
  },
  {
    "id": "breckenridge-public",
    "name": "Breckenridge Library",
    "city": "Breckenridge",
    "lat": 32.7568,
    "lng": -98.9023,
    "booksHeld": 2,
    "totalCopies": 2,
    "vendor": "apollo",
    "region": "Stephens County"
  },
  {
    "id": "brenham-public",
    "name": "Nancy Carol Roberts Memorial Library",
    "city": "Brenham",
    "lat": 30.1669,
    "lng": -96.3977,
    "booksHeld": 14,
    "totalCopies": 14,
    "vendor": "apollo",
    "region": "Washington County"
  },
  {
    "id": "bridge-city-public",
    "name": "Bridge City Public Library",
    "city": "Bridge City",
    "lat": 30.0191,
    "lng": -93.8457,
    "booksHeld": 1,
    "totalCopies": 1,
    "vendor": "apollo",
    "region": "Orange County"
  },
  {
    "id": "bridgeport-public",
    "name": "Bridgeport Public Library",
    "city": "Bridgeport",
    "lat": 33.2101,
    "lng": -97.7547,
    "booksHeld": 3,
    "totalCopies": 4,
    "vendor": "apollo",
    "region": "Wise County"
  },
  {
    "id": "brooks-county",
    "name": "Ed Rachal Memorial Library",
    "city": "Falfurrias",
    "lat": 27.2267,
    "lng": -98.1442,
    "booksHeld": 3,
    "totalCopies": 3,
    "vendor": "apollo",
    "region": "Brooks County"
  },
  {
    "id": "brownfield-public",
    "name": "Kendrick Memorial Library",
    "city": "Brownfield",
    "lat": 33.1812,
    "lng": -102.2746,
    "booksHeld": 6,
    "totalCopies": 6,
    "vendor": "apollo",
    "region": "Terry County"
  },
  {
    "id": "brownsville-public",
    "name": "Brownsville Public Library System",
    "city": "Brownsville",
    "lat": 25.9017,
    "lng": -97.4975,
    "booksHeld": 74,
    "totalCopies": 132,
    "vendor": "apollo",
    "region": "Cameron County"
  },
  {
    "id": "brownwood-community",
    "name": "Brownwood Community Library",
    "city": "Brownwood",
    "lat": 31.7093,
    "lng": -98.9912,
    "booksHeld": 8,
    "totalCopies": 8,
    "vendor": "apollo",
    "region": "Brown County"
  },
  {
    "id": "bryan-college-station",
    "name": "Bryan + College Station Public Library",
    "city": "College Station",
    "lat": 30.628,
    "lng": -96.3344,
    "booksHeld": 62,
    "totalCopies": 103,
    "vendor": "tlc",
    "region": "Brazos County"
  },
  {
    "id": "buda-public",
    "name": "Buda Public Library",
    "city": "Buda",
    "lat": 30.0852,
    "lng": -97.8403,
    "booksHeld": 35,
    "totalCopies": 37,
    "vendor": "apollo",
    "region": "Hays County"
  },
  {
    "id": "buffalo-public",
    "name": "Buffalo Public Library",
    "city": "Buffalo",
    "lat": 31.4632,
    "lng": -96.058,
    "booksHeld": 0,
    "totalCopies": 0,
    "vendor": "atriuum",
    "region": "Leon County"
  },
  {
    "id": "buna-public",
    "name": "Buna Public Library",
    "city": "Buna",
    "lat": 30.4338,
    "lng": -93.9621,
    "booksHeld": 5,
    "totalCopies": 5,
    "vendor": "apollo",
    "region": "Jasper County"
  },
  {
    "id": "burkburnett-public",
    "name": "Burkburnett Public Library",
    "city": "Burkburnett",
    "lat": 34.0981,
    "lng": -98.5706,
    "booksHeld": 0,
    "totalCopies": 0,
    "vendor": "atriuum",
    "region": "Wichita County"
  },
  {
    "id": "burleson-public",
    "name": "Burleson Public Library",
    "city": "Burleson",
    "lat": 32.5421,
    "lng": -97.3208,
    "booksHeld": 0,
    "totalCopies": 0,
    "vendor": "koha",
    "region": "Johnson County"
  },
  {
    "id": "caldwell-public",
    "name": "Harrie P. Woodson Memorial Library",
    "city": "Caldwell",
    "lat": 30.5313,
    "lng": -96.693,
    "booksHeld": 3,
    "totalCopies": 3,
    "vendor": "apollo",
    "region": "Burleson County"
  },
  {
    "id": "calhoun-county",
    "name": "Calhoun County Library",
    "city": "Port Lavaca",
    "lat": 28.615,
    "lng": -96.6261,
    "booksHeld": 12,
    "totalCopies": 15,
    "vendor": "apollo",
    "region": "Calhoun County"
  },
  {
    "id": "cameron-public",
    "name": "Cameron Public Library",
    "city": "Cameron",
    "lat": 30.8532,
    "lng": -96.9769,
    "booksHeld": 2,
    "totalCopies": 2,
    "vendor": "apollo",
    "region": "Milam County"
  },
  {
    "id": "campwood-public",
    "name": "Camp Wood Public Library",
    "city": "Camp Wood",
    "lat": 29.6722,
    "lng": -100.0145,
    "booksHeld": 2,
    "totalCopies": 2,
    "vendor": "apollo",
    "region": "Real County"
  },
  {
    "id": "canyon-area",
    "name": "Canyon Area Library",
    "city": "Canyon",
    "lat": 34.9803,
    "lng": -101.9188,
    "booksHeld": 4,
    "totalCopies": 5,
    "vendor": "sirsi_dynix",
    "region": "Randall County"
  },
  {
    "id": "canyon-lake-public",
    "name": "Tye Preston Memorial Library",
    "city": "Canyon Lake",
    "lat": 29.8752,
    "lng": -98.1364,
    "booksHeld": 11,
    "totalCopies": 11,
    "vendor": "apollo",
    "region": "Comal County"
  },
  {
    "id": "carrollton-aspen",
    "name": "Carrollton Public Library (Aspen Discovery)",
    "city": "Carrollton",
    "lat": 32.9537,
    "lng": -96.8903,
    "booksHeld": 0,
    "totalCopies": 0,
    "vendor": "aspen_discovery",
    "region": "Denton County"
  },
  {
    "id": "carthage-public",
    "name": "Sammy Brown Library",
    "city": "Carthage",
    "lat": 32.1574,
    "lng": -94.3374,
    "booksHeld": 3,
    "totalCopies": 3,
    "vendor": "apollo",
    "region": "Panola County"
  },
  {
    "id": "castroville-public",
    "name": "Castroville Public Library",
    "city": "Castroville",
    "lat": 29.3558,
    "lng": -98.8789,
    "booksHeld": 3,
    "totalCopies": 3,
    "vendor": "apollo",
    "region": "Medina County"
  },
  {
    "id": "cedar-park-aspen",
    "name": "Cedar Park Public Library (Aspen Discovery)",
    "city": "Cedar Park",
    "lat": 30.5052,
    "lng": -97.8203,
    "booksHeld": 0,
    "totalCopies": 0,
    "vendor": "aspen_discovery",
    "region": "Williamson County"
  },
  {
    "id": "charlotte-public",
    "name": "Charlotte Public Library",
    "city": "Charlotte",
    "lat": 28.8614,
    "lng": -98.7064,
    "booksHeld": 8,
    "totalCopies": 8,
    "vendor": "apollo",
    "region": "Atascosa County"
  },
  {
    "id": "cherokee-public",
    "name": "Cherokee City-County Library",
    "city": "Rusk",
    "lat": 31.7963,
    "lng": -95.1522,
    "booksHeld": 12,
    "totalCopies": 12,
    "vendor": "apollo",
    "region": "Cherokee County"
  },
  {
    "id": "cleburne-public",
    "name": "Cleburne Public Library",
    "city": "Cleburne",
    "lat": 32.3476,
    "lng": -97.3867,
    "booksHeld": 3,
    "totalCopies": 3,
    "vendor": "tlc",
    "region": "Johnson County"
  },
  {
    "id": "clyde-public",
    "name": "Clyde Public Library",
    "city": "Clyde",
    "lat": 32.4065,
    "lng": -99.4934,
    "booksHeld": 1,
    "totalCopies": 1,
    "vendor": "apollo",
    "region": "Callahan County"
  },
  {
    "id": "cochran-county",
    "name": "Cochran County Love Memorial Library",
    "city": "Morton",
    "lat": 33.7254,
    "lng": -102.7593,
    "booksHeld": 9,
    "totalCopies": 10,
    "vendor": "apollo",
    "region": "Cochran County"
  },
  {
    "id": "cockrell-hill-public",
    "name": "Cockrell Hill Public Library",
    "city": "Cockrell Hill",
    "lat": 32.7362,
    "lng": -96.887,
    "booksHeld": 3,
    "totalCopies": 3,
    "vendor": "apollo",
    "region": "Dallas County"
  },
  {
    "id": "coke-county",
    "name": "Coke County Library",
    "city": "Robert Lee",
    "lat": 31.8924,
    "lng": -100.4845,
    "booksHeld": 0,
    "totalCopies": 0,
    "vendor": "apollo",
    "region": "Coke County"
  },
  {
    "id": "coleman-public",
    "name": "Coleman Public Library",
    "city": "Coleman",
    "lat": 31.8274,
    "lng": -99.4265,
    "booksHeld": 7,
    "totalCopies": 8,
    "vendor": "apollo",
    "region": "Coleman County"
  },
  {
    "id": "comanche-public",
    "name": "Comanche Public Library",
    "city": "Comanche",
    "lat": 31.8974,
    "lng": -98.6037,
    "booksHeld": 2,
    "totalCopies": 2,
    "vendor": "apollo",
    "region": "Comanche County"
  },
  {
    "id": "comfort-public",
    "name": "Comfort Public Library",
    "city": "Comfort",
    "lat": 29.9677,
    "lng": -98.9053,
    "booksHeld": 4,
    "totalCopies": 4,
    "vendor": "apollo",
    "region": "Kendall County"
  },
  {
    "id": "converse-public",
    "name": "Converse Public Library",
    "city": "Converse",
    "lat": 29.5177,
    "lng": -98.3164,
    "booksHeld": 36,
    "totalCopies": 36,
    "vendor": "apollo",
    "region": "Bexar County"
  },
  {
    "id": "copperas-cove-public",
    "name": "Copperas Cove Public Library",
    "city": "Copperas Cove",
    "lat": 31.1241,
    "lng": -97.9031,
    "booksHeld": 6,
    "totalCopies": 6,
    "vendor": "apollo",
    "region": "Coryell County"
  },
  {
    "id": "corsicana-public",
    "name": "Corsicana Public Library",
    "city": "Corsicana",
    "lat": 32.0954,
    "lng": -96.4689,
    "booksHeld": 0,
    "totalCopies": 0,
    "vendor": "atriuum",
    "region": "Navarro County"
  },
  {
    "id": "crane-county",
    "name": "Crane County Library",
    "city": "Crane",
    "lat": 31.3973,
    "lng": -102.3501,
    "booksHeld": 3,
    "totalCopies": 3,
    "vendor": "apollo",
    "region": "Crane County"
  },
  {
    "id": "crockett-county",
    "name": "Crockett County Public Library",
    "city": "Ozona",
    "lat": 30.7102,
    "lng": -101.2007,
    "booksHeld": 1,
    "totalCopies": 1,
    "vendor": "apollo",
    "region": "Crockett County"
  },
  {
    "id": "crosby-county",
    "name": "Crosby County Library",
    "city": "Crosbyton",
    "lat": 33.6601,
    "lng": -101.2379,
    "booksHeld": 3,
    "totalCopies": 3,
    "vendor": "apollo",
    "region": "Crosby County"
  },
  {
    "id": "daingerfield-public",
    "name": "Daingerfield Public Library",
    "city": "Daingerfield",
    "lat": 33.0318,
    "lng": -94.7219,
    "booksHeld": 3,
    "totalCopies": 3,
    "vendor": "apollo",
    "region": "Morris County"
  },
  {
    "id": "deleon-public",
    "name": "De Leon City-County Library",
    "city": "De Leon",
    "lat": 32.1118,
    "lng": -98.5359,
    "booksHeld": 0,
    "totalCopies": 0,
    "vendor": "apollo",
    "region": "Comanche County"
  },
  {
    "id": "delta-county",
    "name": "Delta County Public Library",
    "city": "Cooper",
    "lat": 33.3726,
    "lng": -95.6943,
    "booksHeld": 0,
    "totalCopies": 0,
    "vendor": "atriuum",
    "region": "Delta County"
  },
  {
    "id": "denton-public",
    "name": "Denton Public Library",
    "city": "Denton",
    "lat": 33.2148,
    "lng": -97.1331,
    "booksHeld": 0,
    "totalCopies": 0,
    "vendor": "bibliocommons",
    "region": "Denton County"
  },
  {
    "id": "diboll-public",
    "name": "T.L.L. Temple Memorial Library",
    "city": "Diboll",
    "lat": 31.1874,
    "lng": -94.7813,
    "booksHeld": 27,
    "totalCopies": 27,
    "vendor": "apollo",
    "region": "Angelina County"
  },
  {
    "id": "dickinson-public",
    "name": "Dickinson Public Library",
    "city": "Dickinson",
    "lat": 29.4608,
    "lng": -95.0513,
    "booksHeld": 22,
    "totalCopies": 24,
    "vendor": "apollo",
    "region": "Galveston County"
  },
  {
    "id": "dilley-public",
    "name": "Dilley Public Library",
    "city": "Dilley",
    "lat": 28.6675,
    "lng": -99.1706,
    "booksHeld": 6,
    "totalCopies": 6,
    "vendor": "apollo",
    "region": "Frio County"
  },
  {
    "id": "dimmit-county",
    "name": "Dimmit County Public Library",
    "city": "Carrizo Springs",
    "lat": 28.5219,
    "lng": -99.8606,
    "booksHeld": 2,
    "totalCopies": 3,
    "vendor": "apollo",
    "region": "Dimmit County"
  },
  {
    "id": "dripping-springs-public",
    "name": "Dripping Springs Community Library",
    "city": "Dripping Springs",
    "lat": 30.1902,
    "lng": -98.0867,
    "booksHeld": 8,
    "totalCopies": 10,
    "vendor": "apollo",
    "region": "Hays County"
  },
  {
    "id": "driscoll-public",
    "name": "Driscoll Public Library",
    "city": "Driscoll",
    "lat": 27.6747,
    "lng": -97.7511,
    "booksHeld": 1,
    "totalCopies": 1,
    "vendor": "apollo",
    "region": "Nueces County"
  },
  {
    "id": "dublin-public",
    "name": "Dublin Public Library",
    "city": "Dublin",
    "lat": 32.0854,
    "lng": -98.342,
    "booksHeld": 12,
    "totalCopies": 13,
    "vendor": "apollo",
    "region": "Erath County"
  },
  {
    "id": "duncanville-public",
    "name": "Duncanville Public Library",
    "city": "Duncanville",
    "lat": 32.6518,
    "lng": -96.9083,
    "booksHeld": 0,
    "totalCopies": 0,
    "vendor": "koha",
    "region": "Dallas County"
  },
  {
    "id": "ector-county",
    "name": "Ector County Library",
    "city": "Odessa",
    "lat": 31.8457,
    "lng": -102.3676,
    "booksHeld": 0,
    "totalCopies": 0,
    "vendor": "sirsi_dynix",
    "region": "Ector County"
  },
  {
    "id": "eden-public",
    "name": "Eden Public Library",
    "city": "Eden",
    "lat": 31.2163,
    "lng": -99.8456,
    "booksHeld": 1,
    "totalCopies": 1,
    "vendor": "apollo",
    "region": "Concho County"
  },
  {
    "id": "edgewood-public",
    "name": "Edgewood Community Library",
    "city": "Edgewood",
    "lat": 32.6982,
    "lng": -95.8855,
    "booksHeld": 2,
    "totalCopies": 2,
    "vendor": "apollo",
    "region": "Van Zandt County"
  },
  {
    "id": "el-paso-public",
    "name": "El Paso Public Library",
    "city": "El Paso",
    "lat": 31.7619,
    "lng": -106.485,
    "booksHeld": 3,
    "totalCopies": 3,
    "vendor": "sirsi_dynix",
    "region": "El Paso County"
  },
  {
    "id": "elgin-public",
    "name": "Elgin Public Library",
    "city": "Elgin",
    "lat": 30.3497,
    "lng": -97.3703,
    "booksHeld": 0,
    "totalCopies": 0,
    "vendor": "apollo",
    "region": "Bastrop County"
  },
  {
    "id": "ennis-public",
    "name": "Ennis Public Library",
    "city": "Ennis",
    "lat": 32.3293,
    "lng": -96.6253,
    "booksHeld": 0,
    "totalCopies": 0,
    "vendor": "atriuum",
    "region": "Ellis County"
  },
  {
    "id": "fairfield-public",
    "name": "Fairfield Library Association",
    "city": "Fairfield",
    "lat": 31.7249,
    "lng": -96.1653,
    "booksHeld": 6,
    "totalCopies": 6,
    "vendor": "apollo",
    "region": "Freestone County"
  },
  {
    "id": "flatonia-public",
    "name": "Flatonia Public Library",
    "city": "Flatonia",
    "lat": 29.6877,
    "lng": -97.1081,
    "booksHeld": 0,
    "totalCopies": 0,
    "vendor": "apollo",
    "region": "Fayette County"
  },
  {
    "id": "flower-mound-public",
    "name": "Flower Mound Public Library",
    "city": "Flower Mound",
    "lat": 33.0146,
    "lng": -97.0969,
    "booksHeld": 0,
    "totalCopies": 0,
    "vendor": "koha",
    "region": "Denton County"
  },
  {
    "id": "floyd-county",
    "name": "Floyd County Memorial Library",
    "city": "Floydada",
    "lat": 33.9845,
    "lng": -101.3376,
    "booksHeld": 3,
    "totalCopies": 3,
    "vendor": "apollo",
    "region": "Floyd County"
  },
  {
    "id": "frisco-public",
    "name": "Frisco Public Library",
    "city": "Frisco",
    "lat": 33.1507,
    "lng": -96.8236,
    "booksHeld": 0,
    "totalCopies": 0,
    "vendor": "bibliocommons",
    "region": "Collin County"
  },
  {
    "id": "garden-ridge-public",
    "name": "Garden Ridge Library",
    "city": "Garden Ridge",
    "lat": 29.6344,
    "lng": -98.3056,
    "booksHeld": 1,
    "totalCopies": 1,
    "vendor": "apollo",
    "region": "Comal County"
  },
  {
    "id": "garland-public",
    "name": "Nicholson Memorial Library System",
    "city": "Garland",
    "lat": 32.9126,
    "lng": -96.6389,
    "booksHeld": 0,
    "totalCopies": 0,
    "vendor": "sirsi_dynix",
    "region": "Dallas County"
  },
  {
    "id": "giddings-public",
    "name": "Giddings Public Library",
    "city": "Giddings",
    "lat": 30.1827,
    "lng": -96.9364,
    "booksHeld": 1,
    "totalCopies": 1,
    "vendor": "apollo",
    "region": "Lee County"
  },
  {
    "id": "gonzales-public",
    "name": "Robert Lee Brothers Jr. Memorial Library",
    "city": "Gonzales",
    "lat": 29.5019,
    "lng": -97.4525,
    "booksHeld": 9,
    "totalCopies": 9,
    "vendor": "apollo",
    "region": "Gonzales County"
  },
  {
    "id": "grand-prairie-public",
    "name": "Grand Prairie Public Library System",
    "city": "Grand Prairie",
    "lat": 32.746,
    "lng": -96.9978,
    "booksHeld": 0,
    "totalCopies": 0,
    "vendor": "sirsi_dynix",
    "region": "Dallas County"
  },
  {
    "id": "grapevine-public",
    "name": "Grapevine Public Library",
    "city": "Grapevine",
    "lat": 32.9343,
    "lng": -97.0781,
    "booksHeld": 0,
    "totalCopies": 0,
    "vendor": "aspen_discovery",
    "region": "Tarrant County"
  },
  {
    "id": "groesbeck-public",
    "name": "Groesbeck Public Library",
    "city": "Groesbeck",
    "lat": 31.5243,
    "lng": -96.5339,
    "booksHeld": 3,
    "totalCopies": 3,
    "vendor": "apollo",
    "region": "Limestone County"
  },
  {
    "id": "groves-public",
    "name": "Groves Public Library",
    "city": "Groves",
    "lat": 29.9483,
    "lng": -93.9171,
    "booksHeld": 9,
    "totalCopies": 9,
    "vendor": "apollo",
    "region": "Jefferson County"
  },
  {
    "id": "groveton-public",
    "name": "Ethel Reese Library (Groveton)",
    "city": "Groveton",
    "lat": 31.0546,
    "lng": -95.1258,
    "booksHeld": 0,
    "totalCopies": 0,
    "vendor": "atriuum",
    "region": "Trinity County"
  },
  {
    "id": "hamilton-public",
    "name": "Hamilton Public Library",
    "city": "Hamilton",
    "lat": 31.7038,
    "lng": -98.1239,
    "booksHeld": 0,
    "totalCopies": 0,
    "vendor": "apollo",
    "region": "Hamilton County"
  },
  {
    "id": "harlingen-public",
    "name": "Harlingen Public Library",
    "city": "Harlingen",
    "lat": 26.1906,
    "lng": -97.6961,
    "booksHeld": 37,
    "totalCopies": 37,
    "vendor": "apollo",
    "region": "Cameron County"
  },
  {
    "id": "harris-county",
    "name": "Harris County Public Library",
    "city": "Spring",
    "lat": 30.0799,
    "lng": -95.4172,
    "booksHeld": 0,
    "totalCopies": 0,
    "vendor": "sirsi_dynix",
    "region": "Harris County"
  },
  {
    "id": "hemphill-public",
    "name": "Mae S. Bruce Public Library",
    "city": "Hemphill",
    "lat": 31.3374,
    "lng": -93.8463,
    "booksHeld": 14,
    "totalCopies": 16,
    "vendor": "apollo",
    "region": "Sabine County"
  },
  {
    "id": "hillsboro-public",
    "name": "Hillsboro City Library",
    "city": "Hillsboro",
    "lat": 32.011,
    "lng": -97.13,
    "booksHeld": 11,
    "totalCopies": 11,
    "vendor": "apollo",
    "region": "Hill County"
  },
  {
    "id": "hitchcock-public",
    "name": "Genevieve Miller Hitchcock Public Library",
    "city": "Hitchcock",
    "lat": 29.3486,
    "lng": -95.0158,
    "booksHeld": 10,
    "totalCopies": 11,
    "vendor": "apollo",
    "region": "Galveston County"
  },
  {
    "id": "holliday-public",
    "name": "Holliday Public Library",
    "city": "Holliday",
    "lat": 33.8156,
    "lng": -98.6948,
    "booksHeld": 2,
    "totalCopies": 2,
    "vendor": "apollo",
    "region": "Archer County"
  },
  {
    "id": "hondo-public",
    "name": "Hondo Public Library",
    "city": "Hondo",
    "lat": 29.3472,
    "lng": -99.1414,
    "booksHeld": 5,
    "totalCopies": 5,
    "vendor": "apollo",
    "region": "Medina County"
  },
  {
    "id": "hood-county",
    "name": "Hood County Library",
    "city": "Granbury",
    "lat": 32.4419,
    "lng": -97.7942,
    "booksHeld": 9,
    "totalCopies": 9,
    "vendor": "tlc",
    "region": "Hood County"
  },
  {
    "id": "houston-public",
    "name": "Houston Public Library",
    "city": "Houston",
    "lat": 29.7604,
    "lng": -95.3698,
    "booksHeld": 202,
    "totalCopies": 999,
    "vendor": "sirsi_dynix",
    "region": "Harris County"
  },
  {
    "id": "hughes-springs-public",
    "name": "Hughes Springs Area Public Library",
    "city": "Hughes Springs",
    "lat": 33.0007,
    "lng": -94.6308,
    "booksHeld": 6,
    "totalCopies": 6,
    "vendor": "apollo",
    "region": "Cass County"
  },
  {
    "id": "huntsville-public",
    "name": "Huntsville Public Library",
    "city": "Huntsville",
    "lat": 30.7235,
    "lng": -95.5508,
    "booksHeld": 0,
    "totalCopies": 0,
    "vendor": "koha",
    "region": "Walker County"
  },
  {
    "id": "hurst-public",
    "name": "Hurst Public Library",
    "city": "Hurst",
    "lat": 32.8234,
    "lng": -97.1706,
    "booksHeld": 0,
    "totalCopies": 0,
    "vendor": "sirsi_dynix",
    "region": "Tarrant County"
  },
  {
    "id": "hutto-public",
    "name": "Hutto Public Library",
    "city": "Hutto",
    "lat": 30.5427,
    "lng": -97.5467,
    "booksHeld": 22,
    "totalCopies": 22,
    "vendor": "apollo",
    "region": "Williamson County"
  },
  {
    "id": "imperial-public",
    "name": "Imperial Public Library",
    "city": "Imperial",
    "lat": 31.2637,
    "lng": -102.6932,
    "booksHeld": 0,
    "totalCopies": 0,
    "vendor": "atriuum",
    "region": "Pecos County"
  },
  {
    "id": "irion-county",
    "name": "MB Noelke Jr Memorial Library",
    "city": "Mertzon",
    "lat": 31.2615,
    "lng": -100.8173,
    "booksHeld": 3,
    "totalCopies": 3,
    "vendor": "apollo",
    "region": "Irion County"
  },
  {
    "id": "italy-public",
    "name": "S.M. Dunlap Library",
    "city": "Italy",
    "lat": 32.184,
    "lng": -96.8847,
    "booksHeld": 3,
    "totalCopies": 3,
    "vendor": "apollo",
    "region": "Ellis County"
  },
  {
    "id": "jackson-county",
    "name": "Jackson County Memorial Library",
    "city": "Edna",
    "lat": 28.9786,
    "lng": -96.6461,
    "booksHeld": 2,
    "totalCopies": 2,
    "vendor": "apollo",
    "region": "Jackson County"
  },
  {
    "id": "jarrell-public",
    "name": "Jarrell Community Library and Resource Center",
    "city": "Jarrell",
    "lat": 30.8252,
    "lng": -97.6042,
    "booksHeld": 4,
    "totalCopies": 4,
    "vendor": "apollo",
    "region": "Williamson County"
  },
  {
    "id": "jasper-public",
    "name": "Jasper Public Library",
    "city": "Jasper",
    "lat": 30.9202,
    "lng": -93.9966,
    "booksHeld": 14,
    "totalCopies": 15,
    "vendor": "apollo",
    "region": "Jasper County"
  },
  {
    "id": "jeff-davis-county",
    "name": "Jeff Davis County Library",
    "city": "Fort Davis",
    "lat": 30.5885,
    "lng": -103.8946,
    "booksHeld": 5,
    "totalCopies": 5,
    "vendor": "apollo",
    "region": "Jeff Davis County"
  },
  {
    "id": "jourdanton-public",
    "name": "Jourdanton Community Library",
    "city": "Jourdanton",
    "lat": 28.9117,
    "lng": -98.5467,
    "booksHeld": 4,
    "totalCopies": 5,
    "vendor": "apollo",
    "region": "Atascosa County"
  },
  {
    "id": "justin-public",
    "name": "Mary Emma Tate Community Library",
    "city": "Justin",
    "lat": 33.0848,
    "lng": -97.2961,
    "booksHeld": 2,
    "totalCopies": 2,
    "vendor": "apollo",
    "region": "Denton County"
  },
  {
    "id": "karnes-city-public",
    "name": "Karnes City Public Library",
    "city": "Karnes City",
    "lat": 28.885,
    "lng": -97.9006,
    "booksHeld": 0,
    "totalCopies": 0,
    "vendor": "apollo",
    "region": "Karnes County"
  },
  {
    "id": "keller-public",
    "name": "Keller Public Library",
    "city": "Keller",
    "lat": 32.9346,
    "lng": -97.2517,
    "booksHeld": 0,
    "totalCopies": 0,
    "vendor": "aspen_discovery",
    "region": "Tarrant County"
  },
  {
    "id": "kendalia-public",
    "name": "Kendalia Public Library",
    "city": "Kendalia",
    "lat": 29.958,
    "lng": -98.52,
    "booksHeld": 0,
    "totalCopies": 0,
    "vendor": "apollo",
    "region": "Kendall County"
  },
  {
    "id": "kenedy-public",
    "name": "Kenedy Public Library",
    "city": "Kenedy",
    "lat": 28.8192,
    "lng": -97.8589,
    "booksHeld": 3,
    "totalCopies": 3,
    "vendor": "apollo",
    "region": "Karnes County"
  },
  {
    "id": "kermit-public",
    "name": "Winkler County Library",
    "city": "Kermit",
    "lat": 31.8579,
    "lng": -103.0926,
    "booksHeld": 3,
    "totalCopies": 3,
    "vendor": "apollo",
    "region": "Winkler County"
  },
  {
    "id": "kerrville-public",
    "name": "Butt-Holdsworth Memorial Library",
    "city": "Kerrville",
    "lat": 30.0474,
    "lng": -99.1403,
    "booksHeld": 9,
    "totalCopies": 9,
    "vendor": "apollo",
    "region": "Kerr County"
  },
  {
    "id": "killeen-public",
    "name": "Killeen Public Library",
    "city": "Killeen",
    "lat": 31.1171,
    "lng": -97.7278,
    "booksHeld": 75,
    "totalCopies": 108,
    "vendor": "apollo",
    "region": "Bell County"
  },
  {
    "id": "krum-public",
    "name": "Krum Public Library",
    "city": "Krum",
    "lat": 33.2615,
    "lng": -97.2386,
    "booksHeld": 18,
    "totalCopies": 18,
    "vendor": "apollo",
    "region": "Denton County"
  },
  {
    "id": "kyle-public",
    "name": "Kyle Public Library",
    "city": "Kyle",
    "lat": 29.9894,
    "lng": -97.8772,
    "booksHeld": 44,
    "totalCopies": 55,
    "vendor": "apollo",
    "region": "Hays County"
  },
  {
    "id": "la-marque-public",
    "name": "La Marque Public Library",
    "city": "La Marque",
    "lat": 29.3686,
    "lng": -94.9713,
    "booksHeld": 23,
    "totalCopies": 25,
    "vendor": "apollo",
    "region": "Galveston County"
  },
  {
    "id": "la-porte-public",
    "name": "La Porte Public Library",
    "city": "La Porte",
    "lat": 29.6658,
    "lng": -95.0194,
    "booksHeld": 5,
    "totalCopies": 5,
    "vendor": "tlc",
    "region": "Harris County"
  },
  {
    "id": "lake-travis-community",
    "name": "Lake Travis Community Library",
    "city": "Lakeway",
    "lat": 30.3636,
    "lng": -97.9792,
    "booksHeld": 36,
    "totalCopies": 39,
    "vendor": "apollo",
    "region": "Travis County"
  },
  {
    "id": "lake-whitney-public",
    "name": "Lake Whitney Public Library",
    "city": "Whitney",
    "lat": 31.9513,
    "lng": -97.3214,
    "booksHeld": 4,
    "totalCopies": 4,
    "vendor": "apollo",
    "region": "Hill County"
  },
  {
    "id": "lakehills-public",
    "name": "Lakehills Area Library",
    "city": "Lakehills",
    "lat": 29.6077,
    "lng": -98.9428,
    "booksHeld": 4,
    "totalCopies": 4,
    "vendor": "apollo",
    "region": "Bandera County"
  },
  {
    "id": "laredo-public",
    "name": "Laredo Public Library",
    "city": "Laredo",
    "lat": 27.5036,
    "lng": -99.5076,
    "booksHeld": 2,
    "totalCopies": 2,
    "vendor": "sirsi_dynix",
    "region": "Webb County"
  },
  {
    "id": "league-city",
    "name": "Helen Hall Library",
    "city": "League City",
    "lat": 29.5075,
    "lng": -95.0949,
    "booksHeld": 0,
    "totalCopies": 0,
    "vendor": "sirsi_dynix",
    "region": "Galveston County"
  },
  {
    "id": "leander-public",
    "name": "Leander Public Library",
    "city": "Leander",
    "lat": 30.5788,
    "lng": -97.8531,
    "booksHeld": 49,
    "totalCopies": 52,
    "vendor": "tlc",
    "region": "Williamson County"
  },
  {
    "id": "leon-valley-public",
    "name": "Leon Valley Public Library",
    "city": "Leon Valley",
    "lat": 29.4955,
    "lng": -98.6142,
    "booksHeld": 20,
    "totalCopies": 20,
    "vendor": "apollo",
    "region": "Bexar County"
  },
  {
    "id": "levelland-public",
    "name": "Hockley County Memorial Library",
    "city": "Levelland",
    "lat": 33.5873,
    "lng": -102.3779,
    "booksHeld": 3,
    "totalCopies": 4,
    "vendor": "apollo",
    "region": "Hockley County"
  },
  {
    "id": "lewisville-public",
    "name": "Lewisville Public Library",
    "city": "Lewisville",
    "lat": 33.0462,
    "lng": -96.9942,
    "booksHeld": 0,
    "totalCopies": 0,
    "vendor": "sirsi_dynix",
    "region": "Denton County"
  },
  {
    "id": "liberty-municipal",
    "name": "Liberty Municipal Library",
    "city": "Liberty",
    "lat": 30.058,
    "lng": -94.7955,
    "booksHeld": 16,
    "totalCopies": 16,
    "vendor": "apollo",
    "region": "Liberty County"
  },
  {
    "id": "live-oak-county",
    "name": "Live Oak County Library",
    "city": "George West",
    "lat": 28.3325,
    "lng": -98.1175,
    "booksHeld": 11,
    "totalCopies": 13,
    "vendor": "apollo",
    "region": "Live Oak County"
  },
  {
    "id": "livingston-public",
    "name": "Livingston Municipal Library",
    "city": "Livingston",
    "lat": 30.711,
    "lng": -94.933,
    "booksHeld": 15,
    "totalCopies": 15,
    "vendor": "apollo",
    "region": "Polk County"
  },
  {
    "id": "llano-county",
    "name": "Llano County Library System",
    "city": "Llano",
    "lat": 30.7499,
    "lng": -98.6828,
    "booksHeld": 14,
    "totalCopies": 16,
    "vendor": "apollo",
    "region": "Llano County"
  },
  {
    "id": "lockhart-public",
    "name": "Dr. Eugene Clark Library",
    "city": "Lockhart",
    "lat": 29.8849,
    "lng": -97.67,
    "booksHeld": 19,
    "totalCopies": 19,
    "vendor": "apollo",
    "region": "Caldwell County"
  },
  {
    "id": "los-fresnos-public",
    "name": "Ethel L. Whipple Memorial Library",
    "city": "Los Fresnos",
    "lat": 26.0714,
    "lng": -97.4761,
    "booksHeld": 13,
    "totalCopies": 13,
    "vendor": "apollo",
    "region": "Cameron County"
  },
  {
    "id": "lubbock-public",
    "name": "Lubbock Public Library",
    "city": "Lubbock",
    "lat": 33.5779,
    "lng": -101.8552,
    "booksHeld": 1,
    "totalCopies": 1,
    "vendor": "sirsi_dynix",
    "region": "Lubbock County"
  },
  {
    "id": "luling-public",
    "name": "JB Nickells Memorial Library",
    "city": "Luling",
    "lat": 29.6805,
    "lng": -97.6475,
    "booksHeld": 2,
    "totalCopies": 2,
    "vendor": "apollo",
    "region": "Caldwell County"
  },
  {
    "id": "lytle-public",
    "name": "Lytle Public Library",
    "city": "Lytle",
    "lat": 29.2325,
    "lng": -98.7964,
    "booksHeld": 7,
    "totalCopies": 7,
    "vendor": "apollo",
    "region": "Atascosa County"
  },
  {
    "id": "madison-county",
    "name": "Madison County Library",
    "city": "Madisonville",
    "lat": 30.9499,
    "lng": -95.9114,
    "booksHeld": 5,
    "totalCopies": 5,
    "vendor": "apollo",
    "region": "Madison County"
  },
  {
    "id": "marathon-public",
    "name": "Marathon Public Library",
    "city": "Marathon",
    "lat": 30.2088,
    "lng": -103.2388,
    "booksHeld": 8,
    "totalCopies": 8,
    "vendor": "apollo",
    "region": "Brewster County"
  },
  {
    "id": "marfa-public",
    "name": "Marfa Public Library",
    "city": "Marfa",
    "lat": 30.3095,
    "lng": -104.0213,
    "booksHeld": 8,
    "totalCopies": 8,
    "vendor": "apollo",
    "region": "Presidio County"
  },
  {
    "id": "marlin-public",
    "name": "Marlin Public Library",
    "city": "Marlin",
    "lat": 31.3063,
    "lng": -96.8981,
    "booksHeld": 2,
    "totalCopies": 2,
    "vendor": "apollo",
    "region": "Falls County"
  },
  {
    "id": "mart-public",
    "name": "Nancy Nail Memorial Library",
    "city": "Mart",
    "lat": 31.5424,
    "lng": -96.8336,
    "booksHeld": 0,
    "totalCopies": 0,
    "vendor": "apollo",
    "region": "McLennan County"
  },
  {
    "id": "martin-county",
    "name": "Martin County Library",
    "city": "Stanton",
    "lat": 32.129,
    "lng": -101.7882,
    "booksHeld": 4,
    "totalCopies": 4,
    "vendor": "apollo",
    "region": "Martin County"
  },
  {
    "id": "mason-county-public",
    "name": "Mason County Public Library",
    "city": "Mason",
    "lat": 30.7488,
    "lng": -99.2306,
    "booksHeld": 17,
    "totalCopies": 19,
    "vendor": "apollo",
    "region": "Mason County"
  },
  {
    "id": "mason-county",
    "name": "Mason County Eckert Memorial Library",
    "city": "Mason",
    "lat": 30.7488,
    "lng": -99.2306,
    "booksHeld": 0,
    "totalCopies": 0,
    "vendor": "apollo",
    "region": "Mason County"
  },
  {
    "id": "mathis-public",
    "name": "Mathis Public Library",
    "city": "Mathis",
    "lat": 28.0953,
    "lng": -97.8281,
    "booksHeld": 0,
    "totalCopies": 0,
    "vendor": "apollo",
    "region": "San Patricio County"
  },
  {
    "id": "mcallen-public",
    "name": "McAllen Public Library",
    "city": "McAllen",
    "lat": 26.2034,
    "lng": -98.23,
    "booksHeld": 96,
    "totalCopies": 203,
    "vendor": "tlc",
    "region": "Hidalgo County"
  },
  {
    "id": "mcculloch-county",
    "name": "McCulloch County Library",
    "city": "Brady",
    "lat": 31.1351,
    "lng": -99.3351,
    "booksHeld": 7,
    "totalCopies": 7,
    "vendor": "apollo",
    "region": "McCulloch County"
  },
  {
    "id": "mckinney-public",
    "name": "McKinney Public Library",
    "city": "McKinney",
    "lat": 33.1972,
    "lng": -96.6397,
    "booksHeld": 0,
    "totalCopies": 0,
    "vendor": "aspen_discovery",
    "region": "Collin County"
  },
  {
    "id": "medina-public",
    "name": "Medina Community Library",
    "city": "Medina",
    "lat": 29.7958,
    "lng": -99.2467,
    "booksHeld": 1,
    "totalCopies": 1,
    "vendor": "apollo",
    "region": "Bandera County"
  },
  {
    "id": "menard-public",
    "name": "Menard Public Library",
    "city": "Menard",
    "lat": 30.9177,
    "lng": -99.7862,
    "booksHeld": 3,
    "totalCopies": 3,
    "vendor": "apollo",
    "region": "Menard County"
  },
  {
    "id": "meridian-public",
    "name": "Meridian Public Library",
    "city": "Meridian",
    "lat": 31.9232,
    "lng": -97.6567,
    "booksHeld": 0,
    "totalCopies": 0,
    "vendor": "apollo",
    "region": "Bosque County"
  },
  {
    "id": "mesquite-public",
    "name": "Mesquite Public Library System",
    "city": "Mesquite",
    "lat": 32.7668,
    "lng": -96.5992,
    "booksHeld": 0,
    "totalCopies": 0,
    "vendor": "sirsi_dynix",
    "region": "Dallas County"
  },
  {
    "id": "midland-county",
    "name": "Midland County Library System",
    "city": "Midland",
    "lat": 31.9973,
    "lng": -102.0779,
    "booksHeld": 0,
    "totalCopies": 0,
    "vendor": "sirsi_dynix",
    "region": "Midland County"
  },
  {
    "id": "midlothian-public",
    "name": "A.H. Meadows Public Library",
    "city": "Midlothian",
    "lat": 32.4824,
    "lng": -96.9945,
    "booksHeld": 0,
    "totalCopies": 0,
    "vendor": "aspen_discovery",
    "region": "Ellis County"
  },
  {
    "id": "mineola-public",
    "name": "Mineola Memorial Library",
    "city": "Mineola",
    "lat": 32.6632,
    "lng": -95.488,
    "booksHeld": 3,
    "totalCopies": 3,
    "vendor": "apollo",
    "region": "Wood County"
  },
  {
    "id": "montgomery-county",
    "name": "Montgomery County Memorial Library System",
    "city": "Conroe",
    "lat": 30.3119,
    "lng": -95.456,
    "booksHeld": 9,
    "totalCopies": 35,
    "vendor": "sirsi_dynix",
    "region": "Montgomery County"
  },
  {
    "id": "mount-pleasant-public",
    "name": "Mount Pleasant Public Library",
    "city": "Mount Pleasant",
    "lat": 33.1568,
    "lng": -94.9683,
    "booksHeld": 19,
    "totalCopies": 19,
    "vendor": "apollo",
    "region": "Titus County"
  },
  {
    "id": "muleshoe-public",
    "name": "Muleshoe Area Public Library",
    "city": "Muleshoe",
    "lat": 34.2265,
    "lng": -102.7238,
    "booksHeld": 13,
    "totalCopies": 13,
    "vendor": "apollo",
    "region": "Bailey County"
  },
  {
    "id": "murphy-public",
    "name": "Murphy Public Library",
    "city": "Murphy",
    "lat": 33.0151,
    "lng": -96.6128,
    "booksHeld": 2,
    "totalCopies": 2,
    "vendor": "apollo",
    "region": "Collin County"
  },
  {
    "id": "nacogdoches-public",
    "name": "Nacogdoches Public Library",
    "city": "Nacogdoches",
    "lat": 31.6035,
    "lng": -94.6555,
    "booksHeld": 0,
    "totalCopies": 0,
    "vendor": "apollo",
    "region": "Nacogdoches County"
  },
  {
    "id": "navasota-public",
    "name": "Navasota Public Library",
    "city": "Navasota",
    "lat": 30.388,
    "lng": -96.0875,
    "booksHeld": 10,
    "totalCopies": 10,
    "vendor": "apollo",
    "region": "Grimes County"
  },
  {
    "id": "nederland-public",
    "name": "Marion and Ed Hughes Public Library",
    "city": "Nederland",
    "lat": 29.9744,
    "lng": -93.9924,
    "booksHeld": 0,
    "totalCopies": 0,
    "vendor": "sirsi_dynix",
    "region": "Jefferson County"
  },
  {
    "id": "nesbitt-memorial",
    "name": "Nesbitt Memorial Library",
    "city": "Columbus",
    "lat": 29.7066,
    "lng": -96.5397,
    "booksHeld": 6,
    "totalCopies": 6,
    "vendor": "apollo",
    "region": "Colorado County"
  },
  {
    "id": "new-braunfels-public",
    "name": "New Braunfels Public Library",
    "city": "New Braunfels",
    "lat": 29.703,
    "lng": -98.1245,
    "booksHeld": 53,
    "totalCopies": 73,
    "vendor": "tlc",
    "region": "Comal County"
  },
  {
    "id": "newton-county",
    "name": "Newton County Library",
    "city": "Newton",
    "lat": 30.8486,
    "lng": -93.7574,
    "booksHeld": 5,
    "totalCopies": 5,
    "vendor": "apollo",
    "region": "Newton County"
  },
  {
    "id": "nocona-public",
    "name": "Nocona Public Library",
    "city": "Nocona",
    "lat": 33.7868,
    "lng": -97.7264,
    "booksHeld": 3,
    "totalCopies": 3,
    "vendor": "apollo",
    "region": "Montague County"
  },
  {
    "id": "north-richland-hills-public",
    "name": "North Richland Hills Public Library",
    "city": "North Richland Hills",
    "lat": 32.8343,
    "lng": -97.2289,
    "booksHeld": 0,
    "totalCopies": 0,
    "vendor": "koha",
    "region": "Tarrant County"
  },
  {
    "id": "onalaska-public",
    "name": "Coulter Public Library",
    "city": "Onalaska",
    "lat": 30.806,
    "lng": -95.1147,
    "booksHeld": 1,
    "totalCopies": 1,
    "vendor": "apollo",
    "region": "Polk County"
  },
  {
    "id": "orange-public",
    "name": "Orange Public Library",
    "city": "Orange",
    "lat": 30.093,
    "lng": -93.7366,
    "booksHeld": 22,
    "totalCopies": 22,
    "vendor": "apollo",
    "region": "Orange County"
  },
  {
    "id": "paris-public",
    "name": "Paris Public Library",
    "city": "Paris",
    "lat": 33.6609,
    "lng": -95.5555,
    "booksHeld": 0,
    "totalCopies": 0,
    "vendor": "atriuum",
    "region": "Lamar County"
  },
  {
    "id": "pasadena-public",
    "name": "Pasadena Public Library",
    "city": "Pasadena",
    "lat": 29.6911,
    "lng": -95.2091,
    "booksHeld": 7,
    "totalCopies": 33,
    "vendor": "sirsi_dynix",
    "region": "Harris County"
  },
  {
    "id": "pearsall-public",
    "name": "Pearsall Public Library",
    "city": "Pearsall",
    "lat": 28.8922,
    "lng": -99.095,
    "booksHeld": 0,
    "totalCopies": 0,
    "vendor": "atriuum",
    "region": "Frio County"
  },
  {
    "id": "pflugerville-public",
    "name": "Pflugerville Public Library",
    "city": "Pflugerville",
    "lat": 30.4394,
    "lng": -97.62,
    "booksHeld": 63,
    "totalCopies": 72,
    "vendor": "apollo",
    "region": "Travis County"
  },
  {
    "id": "plano-public",
    "name": "Plano Public Library",
    "city": "Plano",
    "lat": 33.0198,
    "lng": -96.6989,
    "booksHeld": 98,
    "totalCopies": 181,
    "vendor": "sirsi_dynix",
    "region": "Collin County"
  },
  {
    "id": "pleasanton-public",
    "name": "Pleasanton Library and Information Center",
    "city": "Pleasanton",
    "lat": 28.9672,
    "lng": -98.4789,
    "booksHeld": 15,
    "totalCopies": 15,
    "vendor": "apollo",
    "region": "Atascosa County"
  },
  {
    "id": "port-aransas-public",
    "name": "Ellis Memorial Library",
    "city": "Port Aransas",
    "lat": 27.8339,
    "lng": -97.0611,
    "booksHeld": 6,
    "totalCopies": 6,
    "vendor": "apollo",
    "region": "Nueces County"
  },
  {
    "id": "port-isabel-public",
    "name": "Port Isabel Public Library",
    "city": "Port Isabel",
    "lat": 26.0734,
    "lng": -97.2086,
    "booksHeld": 11,
    "totalCopies": 11,
    "vendor": "apollo",
    "region": "Cameron County"
  },
  {
    "id": "port-neches-public",
    "name": "Effie & Wilton Hebert Public Library",
    "city": "Port Neches",
    "lat": 29.9914,
    "lng": -93.9588,
    "booksHeld": 0,
    "totalCopies": 0,
    "vendor": "sirsi_dynix",
    "region": "Jefferson County"
  },
  {
    "id": "post-public",
    "name": "Post Public Library",
    "city": "Post",
    "lat": 33.1907,
    "lng": -101.379,
    "booksHeld": 0,
    "totalCopies": 0,
    "vendor": "apollo",
    "region": "Garza County"
  },
  {
    "id": "poteet-public",
    "name": "Poteet Public Library",
    "city": "Poteet",
    "lat": 29.0406,
    "lng": -98.5681,
    "booksHeld": 2,
    "totalCopies": 2,
    "vendor": "apollo",
    "region": "Atascosa County"
  },
  {
    "id": "premont-public",
    "name": "Premont Public Library",
    "city": "Premont",
    "lat": 27.3603,
    "lng": -98.1236,
    "booksHeld": 1,
    "totalCopies": 1,
    "vendor": "apollo",
    "region": "Jim Wells County"
  },
  {
    "id": "prosper-community",
    "name": "Prosper Community Library",
    "city": "Prosper",
    "lat": 33.2362,
    "lng": -96.8011,
    "booksHeld": 0,
    "totalCopies": 0,
    "vendor": "aspen_discovery",
    "region": "Collin County"
  },
  {
    "id": "quitman-public",
    "name": "Quitman Public Library",
    "city": "Quitman",
    "lat": 32.796,
    "lng": -95.4513,
    "booksHeld": 3,
    "totalCopies": 3,
    "vendor": "apollo",
    "region": "Wood County"
  },
  {
    "id": "rains-county",
    "name": "Rains County Public Library",
    "city": "Emory",
    "lat": 32.8743,
    "lng": -95.7657,
    "booksHeld": 0,
    "totalCopies": 0,
    "vendor": "atriuum",
    "region": "Rains County"
  },
  {
    "id": "ranger-public",
    "name": "Ranger City Library",
    "city": "Ranger",
    "lat": 32.4698,
    "lng": -98.6787,
    "booksHeld": 0,
    "totalCopies": 0,
    "vendor": "apollo",
    "region": "Eastland County"
  },
  {
    "id": "rankin-public",
    "name": "Rankin Public Library",
    "city": "Rankin",
    "lat": 31.2232,
    "lng": -101.9382,
    "booksHeld": 0,
    "totalCopies": 0,
    "vendor": "apollo",
    "region": "Upton County"
  },
  {
    "id": "reagan-county",
    "name": "Reagan County Library",
    "city": "Big Lake",
    "lat": 31.1915,
    "lng": -101.4601,
    "booksHeld": 5,
    "totalCopies": 5,
    "vendor": "apollo",
    "region": "Reagan County"
  },
  {
    "id": "real-county",
    "name": "Real County Public Library",
    "city": "Leakey",
    "lat": 29.7283,
    "lng": -99.7612,
    "booksHeld": 3,
    "totalCopies": 3,
    "vendor": "apollo",
    "region": "Real County"
  },
  {
    "id": "red-river-county",
    "name": "Red River County Public Library",
    "city": "Clarksville",
    "lat": 33.6107,
    "lng": -95.0527,
    "booksHeld": 0,
    "totalCopies": 0,
    "vendor": "atriuum",
    "region": "Red River County"
  },
  {
    "id": "richardson-public",
    "name": "Richardson Public Library",
    "city": "Richardson",
    "lat": 32.9483,
    "lng": -96.7299,
    "booksHeld": 0,
    "totalCopies": 0,
    "vendor": "sirsi_dynix",
    "region": "Dallas County"
  },
  {
    "id": "rio-grande-city-public",
    "name": "Rio Grande City Public Library",
    "city": "Rio Grande City",
    "lat": 26.3798,
    "lng": -98.8203,
    "booksHeld": 16,
    "totalCopies": 16,
    "vendor": "apollo",
    "region": "Starr County"
  },
  {
    "id": "rockdale-public",
    "name": "Lucy Hill Patterson Memorial Library",
    "city": "Rockdale",
    "lat": 30.6555,
    "lng": -97.0017,
    "booksHeld": 4,
    "totalCopies": 4,
    "vendor": "apollo",
    "region": "Milam County"
  },
  {
    "id": "roma-public",
    "name": "Starr County Library Consortium",
    "city": "Roma",
    "lat": 26.4053,
    "lng": -99.0156,
    "booksHeld": 9,
    "totalCopies": 10,
    "vendor": "apollo",
    "region": "Starr County"
  },
  {
    "id": "rosenberg-library",
    "name": "Rosenberg Library",
    "city": "Galveston",
    "lat": 29.3013,
    "lng": -94.7977,
    "booksHeld": 59,
    "totalCopies": 62,
    "vendor": "apollo",
    "region": "Galveston County"
  },
  {
    "id": "round-rock-public",
    "name": "Round Rock Public Library",
    "city": "Round Rock",
    "lat": 30.5083,
    "lng": -97.6789,
    "booksHeld": 0,
    "totalCopies": 0,
    "vendor": "koha",
    "region": "Williamson County"
  },
  {
    "id": "rowlett-public",
    "name": "Rowlett Public Library",
    "city": "Rowlett",
    "lat": 32.9029,
    "lng": -96.5639,
    "booksHeld": 27,
    "totalCopies": 29,
    "vendor": "apollo",
    "region": "Dallas County"
  },
  {
    "id": "runge-public",
    "name": "Runge Public Library",
    "city": "Runge",
    "lat": 28.8831,
    "lng": -97.7125,
    "booksHeld": 3,
    "totalCopies": 3,
    "vendor": "apollo",
    "region": "Karnes County"
  },
  {
    "id": "sachse-public",
    "name": "Sachse Public Library",
    "city": "Sachse",
    "lat": 32.9762,
    "lng": -96.5953,
    "booksHeld": 0,
    "totalCopies": 0,
    "vendor": "atriuum",
    "region": "Dallas County"
  },
  {
    "id": "salado-public",
    "name": "Salado Public Library",
    "city": "Salado",
    "lat": 30.9471,
    "lng": -97.5386,
    "booksHeld": 8,
    "totalCopies": 8,
    "vendor": "apollo",
    "region": "Bell County"
  },
  {
    "id": "san-antonio-public",
    "name": "San Antonio Public Library",
    "city": "San Antonio",
    "lat": 29.4241,
    "lng": -98.4936,
    "booksHeld": 0,
    "totalCopies": 0,
    "vendor": "bibliocommons",
    "region": "Bexar County"
  },
  {
    "id": "san-augustine-public",
    "name": "San Augustine Public Library",
    "city": "San Augustine",
    "lat": 31.5299,
    "lng": -94.106,
    "booksHeld": 2,
    "totalCopies": 2,
    "vendor": "apollo",
    "region": "San Augustine County"
  },
  {
    "id": "san-benito-public",
    "name": "San Benito Public Library",
    "city": "San Benito",
    "lat": 26.1325,
    "lng": -97.6311,
    "booksHeld": 10,
    "totalCopies": 11,
    "vendor": "apollo",
    "region": "Cameron County"
  },
  {
    "id": "schulenburg-public",
    "name": "Schulenburg Public Library",
    "city": "Schulenburg",
    "lat": 29.6819,
    "lng": -96.9031,
    "booksHeld": 2,
    "totalCopies": 2,
    "vendor": "apollo",
    "region": "Fayette County"
  },
  {
    "id": "seguin-public",
    "name": "Seguin Public Library",
    "city": "Seguin",
    "lat": 29.5688,
    "lng": -97.9647,
    "booksHeld": 40,
    "totalCopies": 42,
    "vendor": "apollo",
    "region": "Guadalupe County"
  },
  {
    "id": "shackelford-county",
    "name": "Shackelford County Library",
    "city": "Albany",
    "lat": 32.7237,
    "lng": -99.2973,
    "booksHeld": 0,
    "totalCopies": 0,
    "vendor": "apollo",
    "region": "Shackelford County"
  },
  {
    "id": "shepherd-public",
    "name": "Shepherd Public Library",
    "city": "Shepherd",
    "lat": 30.4977,
    "lng": -94.9966,
    "booksHeld": 5,
    "totalCopies": 5,
    "vendor": "apollo",
    "region": "San Jacinto County"
  },
  {
    "id": "sherman-public",
    "name": "Sherman Public Library (BARR Consortium)",
    "city": "Sherman",
    "lat": 33.6357,
    "lng": -96.6089,
    "booksHeld": 36,
    "totalCopies": 54,
    "vendor": "tlc",
    "region": "Grayson County"
  },
  {
    "id": "shiner-public",
    "name": "Mabel C. Fry Public Library",
    "city": "Shiner",
    "lat": 29.4291,
    "lng": -97.1706,
    "booksHeld": 20,
    "totalCopies": 23,
    "vendor": "apollo",
    "region": "Lavaca County"
  },
  {
    "id": "smithville-public",
    "name": "Smithville Public Library",
    "city": "Smithville",
    "lat": 30.0086,
    "lng": -97.1592,
    "booksHeld": 10,
    "totalCopies": 10,
    "vendor": "apollo",
    "region": "Bastrop County"
  },
  {
    "id": "spur-public",
    "name": "Dickens County Spur Public Library",
    "city": "Spur",
    "lat": 33.4765,
    "lng": -100.8554,
    "booksHeld": 1,
    "totalCopies": 1,
    "vendor": "apollo",
    "region": "Dickens County"
  },
  {
    "id": "stanton-public",
    "name": "Stanton Public Library",
    "city": "Stanton",
    "lat": 32.129,
    "lng": -101.7882,
    "booksHeld": 0,
    "totalCopies": 0,
    "vendor": "apollo",
    "region": "Martin County"
  },
  {
    "id": "stephenville-public",
    "name": "Stephenville Public Library",
    "city": "Stephenville",
    "lat": 32.2207,
    "lng": -98.2023,
    "booksHeld": 0,
    "totalCopies": 0,
    "vendor": "atriuum",
    "region": "Erath County"
  },
  {
    "id": "sutton-county",
    "name": "Sutton County Public Library",
    "city": "Sonora",
    "lat": 30.5668,
    "lng": -100.6434,
    "booksHeld": 4,
    "totalCopies": 4,
    "vendor": "apollo",
    "region": "Sutton County"
  },
  {
    "id": "sweetwater-public",
    "name": "Sweetwater County-City Library",
    "city": "Sweetwater",
    "lat": 32.471,
    "lng": -100.4059,
    "booksHeld": 3,
    "totalCopies": 3,
    "vendor": "apollo",
    "region": "Nolan County"
  },
  {
    "id": "taft-public",
    "name": "Taft Public Library",
    "city": "Taft",
    "lat": 27.9786,
    "lng": -97.3942,
    "booksHeld": 0,
    "totalCopies": 0,
    "vendor": "atriuum",
    "region": "San Patricio County"
  },
  {
    "id": "tahoka-public",
    "name": "City-County Library of Tahoka",
    "city": "Tahoka",
    "lat": 33.1668,
    "lng": -101.7935,
    "booksHeld": 1,
    "totalCopies": 1,
    "vendor": "apollo",
    "region": "Lynn County"
  },
  {
    "id": "taylor-public",
    "name": "Taylor Public Library",
    "city": "Taylor",
    "lat": 30.5708,
    "lng": -97.4092,
    "booksHeld": 41,
    "totalCopies": 41,
    "vendor": "apollo",
    "region": "Williamson County"
  },
  {
    "id": "temple-public",
    "name": "Temple Public Library",
    "city": "Temple",
    "lat": 31.0982,
    "lng": -97.3428,
    "booksHeld": 51,
    "totalCopies": 55,
    "vendor": "apollo",
    "region": "Bell County"
  },
  {
    "id": "terrell-public",
    "name": "Terrell Public Library",
    "city": "Terrell",
    "lat": 32.736,
    "lng": -96.2753,
    "booksHeld": 21,
    "totalCopies": 22,
    "vendor": "apollo",
    "region": "Kaufman County"
  },
  {
    "id": "texarkana-public",
    "name": "Texarkana Public Library",
    "city": "Texarkana",
    "lat": 33.4418,
    "lng": -94.0477,
    "booksHeld": 0,
    "totalCopies": 0,
    "vendor": "sirsi_dynix",
    "region": "Bowie County"
  },
  {
    "id": "texas-city-public",
    "name": "Moore Memorial Public Library",
    "city": "Texas City",
    "lat": 29.3838,
    "lng": -94.9027,
    "booksHeld": 0,
    "totalCopies": 0,
    "vendor": "sirsi_dynix",
    "region": "Galveston County"
  },
  {
    "id": "the-colony-public",
    "name": "The Colony Public Library",
    "city": "The Colony",
    "lat": 33.0857,
    "lng": -96.8886,
    "booksHeld": 0,
    "totalCopies": 0,
    "vendor": "aspen_discovery",
    "region": "Denton County"
  },
  {
    "id": "tom-bean-public",
    "name": "Lucile Teague Library",
    "city": "Tom Bean",
    "lat": 33.5201,
    "lng": -96.4836,
    "booksHeld": 0,
    "totalCopies": 0,
    "vendor": "apollo",
    "region": "Grayson County"
  },
  {
    "id": "tom-green-county",
    "name": "Tom Green County Library System",
    "city": "San Angelo",
    "lat": 31.4638,
    "lng": -100.437,
    "booksHeld": 71,
    "totalCopies": 109,
    "vendor": "tlc",
    "region": "Tom Green County"
  },
  {
    "id": "universal-city-public",
    "name": "Universal City Public Library",
    "city": "Universal City",
    "lat": 29.548,
    "lng": -98.2911,
    "booksHeld": 10,
    "totalCopies": 10,
    "vendor": "apollo",
    "region": "Bexar County"
  },
  {
    "id": "upshur-county",
    "name": "Upshur County Library",
    "city": "Gilmer",
    "lat": 32.7288,
    "lng": -94.9427,
    "booksHeld": 22,
    "totalCopies": 23,
    "vendor": "apollo",
    "region": "Upshur County"
  },
  {
    "id": "val-verde-county",
    "name": "Val Verde County Library",
    "city": "Del Rio",
    "lat": 29.3627,
    "lng": -100.8968,
    "booksHeld": 19,
    "totalCopies": 20,
    "vendor": "apollo",
    "region": "Val Verde County"
  },
  {
    "id": "victoria-public",
    "name": "Victoria Public Library",
    "city": "Victoria",
    "lat": 28.8053,
    "lng": -96.985,
    "booksHeld": 13,
    "totalCopies": 13,
    "vendor": "apollo",
    "region": "Victoria County"
  },
  {
    "id": "vidor-public",
    "name": "Vidor Public Library",
    "city": "Vidor",
    "lat": 30.1316,
    "lng": -93.996,
    "booksHeld": 6,
    "totalCopies": 6,
    "vendor": "apollo",
    "region": "Orange County"
  },
  {
    "id": "waco-mclennan",
    "name": "Waco-McLennan County Library",
    "city": "Waco",
    "lat": 31.5493,
    "lng": -97.1467,
    "booksHeld": 103,
    "totalCopies": 291,
    "vendor": "tlc",
    "region": "McLennan County"
  },
  {
    "id": "ward-county",
    "name": "Ward County Public Library",
    "city": "Monahans",
    "lat": 31.5943,
    "lng": -102.8924,
    "booksHeld": 8,
    "totalCopies": 9,
    "vendor": "apollo",
    "region": "Ward County"
  },
  {
    "id": "watauga-public",
    "name": "Watauga Public Library",
    "city": "Watauga",
    "lat": 32.8579,
    "lng": -97.2547,
    "booksHeld": 0,
    "totalCopies": 0,
    "vendor": "aspen_discovery",
    "region": "Tarrant County"
  },
  {
    "id": "waxahachie-public",
    "name": "Nicholas P. Sims Library",
    "city": "Waxahachie",
    "lat": 32.3866,
    "lng": -96.8483,
    "booksHeld": 6,
    "totalCopies": 7,
    "vendor": "apollo",
    "region": "Ellis County"
  },
  {
    "id": "wellington-public",
    "name": "Wellington Public Library",
    "city": "Wellington",
    "lat": 34.8562,
    "lng": -100.2137,
    "booksHeld": 24,
    "totalCopies": 44,
    "vendor": "apollo",
    "region": "Collingsworth County"
  },
  {
    "id": "wells-branch-public",
    "name": "Wells Branch Community Library",
    "city": "Austin",
    "lat": 30.2672,
    "lng": -97.7431,
    "booksHeld": 30,
    "totalCopies": 30,
    "vendor": "apollo",
    "region": "Travis County"
  },
  {
    "id": "west-public",
    "name": "West Public Library",
    "city": "West",
    "lat": 31.8024,
    "lng": -97.0917,
    "booksHeld": 2,
    "totalCopies": 3,
    "vendor": "apollo",
    "region": "McLennan County"
  },
  {
    "id": "westbank-public",
    "name": "Westbank Libraries",
    "city": "Austin",
    "lat": 30.2672,
    "lng": -97.7431,
    "booksHeld": 33,
    "totalCopies": 37,
    "vendor": "apollo",
    "region": "Travis County"
  },
  {
    "id": "wichita-falls",
    "name": "Wichita Falls Public Library",
    "city": "Wichita Falls",
    "lat": 33.9137,
    "lng": -98.4934,
    "booksHeld": 97,
    "totalCopies": 97,
    "vendor": "tlc",
    "region": "Wichita County"
  },
  {
    "id": "wilson-county",
    "name": "Wilson County Public Libraries",
    "city": "Floresville",
    "lat": 29.1336,
    "lng": -98.1561,
    "booksHeld": 15,
    "totalCopies": 19,
    "vendor": "apollo",
    "region": "Wilson County"
  },
  {
    "id": "wimberley-public",
    "name": "Wimberley Village Library",
    "city": "Wimberley",
    "lat": 29.9975,
    "lng": -98.0986,
    "booksHeld": 12,
    "totalCopies": 12,
    "vendor": "apollo",
    "region": "Hays County"
  },
  {
    "id": "wolfforth-public",
    "name": "City of Wolfforth Library",
    "city": "Wolfforth",
    "lat": 33.5065,
    "lng": -102.0088,
    "booksHeld": 11,
    "totalCopies": 12,
    "vendor": "apollo",
    "region": "Lubbock County"
  },
  {
    "id": "woodville-public",
    "name": "Allan Shivers Library and Museum",
    "city": "Woodville",
    "lat": 30.7752,
    "lng": -94.4155,
    "booksHeld": 3,
    "totalCopies": 3,
    "vendor": "apollo",
    "region": "Tyler County"
  },
  {
    "id": "wylie-public",
    "name": "Rita & Truett Smith Public Library",
    "city": "Wylie",
    "lat": 33.0151,
    "lng": -96.5389,
    "booksHeld": 70,
    "totalCopies": 208,
    "vendor": "tlc",
    "region": "Collin County"
  },
  {
    "id": "yoakum-county-denver-city",
    "name": "Yoakum County Cecil Bickley Library",
    "city": "Denver City",
    "lat": 32.9643,
    "lng": -102.8293,
    "booksHeld": 7,
    "totalCopies": 7,
    "vendor": "apollo",
    "region": "Yoakum County"
  },
  {
    "id": "yoakum-county-plains",
    "name": "Yoakum County Library - Plains",
    "city": "Plains",
    "lat": 33.1884,
    "lng": -102.8279,
    "booksHeld": 7,
    "totalCopies": 7,
    "vendor": "apollo",
    "region": "Yoakum County"
  },
  {
    "id": "yorktown-public",
    "name": "Yorktown Public Library",
    "city": "Yorktown",
    "lat": 28.9811,
    "lng": -97.5028,
    "booksHeld": 20,
    "totalCopies": 20,
    "vendor": "apollo",
    "region": "DeWitt County"
  }
]